[
  {
    "nombre": "Playa del arenal",
    "coordenadas": {
      "lat": 38.7730399859414,
      "lng": 0.18985817798651272
    },
    "pregunta": "Es una playa artificial?",
    "respuestas": {
      "opciones": [
        "Si",
        "No",
        "Mi culo",
        "Pobes"
      ],
      "correcta": 0
    }
  },
  {
    "nombre": "Iglesia de javea",
    "coordenadas": {
      "lat": 38.787943361195,
      "lng": 0.16376505853047618
    },
    "pregunta": "fewargr",
    "respuestas": {
      "opciones": [
        "1",
        "2",
        "3",
        "4"
      ],
      "correcta": 2
    }
  },
  {
    "nombre": "Nose",
    "coordenadas": {
      "lat": 38.77559945053476,
      "lng": 0.1659618235600391
    },
    "pregunta": "nose?",
    "respuestas": {
      "opciones": [
        "no",
        "si",
        "nose",
        "puede ser"
      ],
      "correcta": 1
    }
  },
  {
    "nombre": "Casa Peter",
    "coordenadas": {
      "lat": 38.75157730808474,
      "lng": 0.20487251972424847
    },
    "pregunta": "Esta es la casa de peter?",
    "respuestas": {
      "opciones": [
        "Si",
        "No",
        "No se, preguntale a peter",
        "Wi"
      ],
      "correcta": 0
    }
  },
  {
    "nombre": "Instituto",
    "coordenadas": {
      "lat": 38.78861199463839,
      "lng": 0.17826898521386972
    },
    "pregunta": "Hay algun almuno que le guste estudiar",
    "respuestas": {
      "opciones": [
        "SI",
        "No",
        "NO",
        "NO, pero con enfasis"
      ],
      "correcta": 3
    }
  }
]