[
  {
    "nombre": "Playa del arenal",
    "coordenadas": {
      "lat": 38.7730399859414,
      "lng": 0.18985817798651272
    },
    "pregunta": "Es una playa artificial?",
    "respuestas": {
      "opciones": [
        "Si",
        "No",
        "Mi culo",
        "Pobes"
      ],
      "correcta": 0
    }
  },
  {
    "nombre": "Iglesia de javea",
    "coordenadas": {
      "lat": 38.787943361195,
      "lng": 0.16376505853047618
    },
    "pregunta": "fewargr",
    "respuestas": {
      "opciones": [
        "1",
        "2",
        "3",
        "4"
      ],
      "correcta": 2
    }
  },
  {
    "nombre": "Nose",
    "coordenadas": {
      "lat": 38.77559945053476,
      "lng": 0.1659618235600391
    },
    "pregunta": "nose?",
    "respuestas": {
      "opciones": [
        "no",
        "si",
        "nose",
        "puede ser"
      ],
      "correcta": 1
    }
  },
  {
    "nombre": "Instituto",
    "coordenadas": {
      "lat": 38.78827827161343,
      "lng": 0.17801293472026192
    },
    "pregunta": "Hay algun almuno que le guste estudiar",
    "respuestas": {
      "opciones": [
        "SI",
        "No",
        "NO",
        "NO, pero con enfasis"
      ],
      "correcta": 3
    }
  },
  {
    "nombre": "casa",
    "coordenadas": {
      "lat": 38.751757673860894,
      "lng": 0.20475447177886966
    },
    "pregunta": "hahaa",
    "respuestas": {
      "opciones": [
        "ijasf",
        "sodifj",
        "osdf",
        "eojw"
      ],
      "correcta": 3
    }
  }
]